{"type":"FeatureCollection","features":[{"type":"Feature","properties":{"Country_name":"ZAF"},"geometry":{"coordinates":[24.157140403685048,-29.656876648463438],"type":"Point"}},{"type":"Feature","properties":{"Country_name":"ITA"},"geometry":{"coordinates":[12.285841700990602,43.325855299464536],"type":"Point"}},{"type":"Feature","properties":{"Country_name":"FRA"},"geometry":{"coordinates":[2.5337165362888356,47.81033589085109],"type":"Point"}},{"type":"Feature","properties":{"Country_name":"DEU"},"geometry":{"coordinates":[10.412097828499157,51.05168379179884],"type":"Point"}},{"type":"Feature","properties":{"Country_name":"NLD"},"geometry":{"coordinates":[5.651326755509331,51.94742688967369],"type":"Point"}},{"type":"Feature","properties":{"Country_name":"BEL"},"geometry":{"coordinates":[4.80290802020528,50.41570729568903],"type":"Point"}},{"type":"Feature","properties":{"Country_name":"ESP"},"geometry":{"coordinates":[-3.990644058074338,41.18294229656536],"type":"Point"}},{"type":"Feature","properties":{"Country_name":"TUR"},"geometry":{"coordinates":[35.639305048378475,39.065160009439126],"type":"Point"}},{"type":"Feature","properties":{"Country_name":"GRB"},"geometry":{"coordinates":[-1.7401077179859215,54.10510019564478],"type":"Point"}},{"type":"Feature","properties":{"Country_name":"AUS"},"geometry":{"coordinates":[134.90084794633862,-25.506802873335857],"type":"Point"}},{"type":"Feature","properties":{"Country_name":"JPN"},"geometry":{"coordinates":[140.0069502344312,36.970551104112076],"type":"Point"}},{"type":"Feature","properties":{"Country_name":"CAN"},"geometry":{"coordinates":[-105.61008230510464,55.626379406197316],"type":"Point"}},{"type":"Feature","properties":{"Country_name":"USA"},"geometry":{"coordinates":[-98.21212955468576,38.77263515305043],"type":"Point"}},{"type":"Feature","properties":{"Country_name":"MEX"},"geometry":{"coordinates":[-103.06263243414475,23.750070861476573],"type":"Point"}},{"type":"Feature","properties":{"Country_name":"BRA"},"geometry":{"coordinates":[-50.56206184638302,-9.751291670576293],"type":"Point"}},{"type":"Feature","properties":{"Country_name":"ARG"},"geometry":{"coordinates":[-63.373387718326285,-36.195518457728916],"type":"Point"}}]}